[
  {
    "name": "Commander's Palace",
    "address": {
      "line1": "1403 Washington Avenue",
      "line2": "",
      "city": "New Orleans",
      "state": "LA",
      "zip": "70130"
    },
    "lat": 29.9256,
    "lng": -90.0814,
    "phone": "(504) 899-8221",
    "website": "https://www.commanderspalace.com",
    "cuisines": [
      "Creole",
      "Fine Dining"
    ],
    "liveRating": 4.6
  },
  {
    "name": "Antoine's Restaurant",
    "address": {
      "line1": "713 St Louis Street",
      "line2": "",
      "city": "New Orleans",
      "state": "LA",
      "zip": "70130"
    },
    "lat": 29.9581,
    "lng": -90.0647,
    "phone": "(504) 581-4422",
    "website": "https://www.antoines.com",
    "cuisines": [
      "Creole",
      "French"
    ],
    "liveRating": 4.3
  },
  {
    "name": "Galatoire's Restaurant",
    "address": {
      "line1": "209 Bourbon Street",
      "line2": "",
      "city": "New Orleans",
      "state": "LA",
      "zip": "70130"
    },
    "lat": 29.9578,
    "lng": -90.0667,
    "phone": "(504) 525-2021",
    "website": "https://www.galatoires.com",
    "cuisines": [
      "Creole",
      "French"
    ],
    "liveRating": 4.5
  },
  {
    "name": "Arnaud's Restaurant",
    "address": {
      "line1": "813 Bienville Street",
      "line2": "",
      "city": "New Orleans",
      "state": "LA",
      "zip": "70112"
    },
    "lat": 29.9561,
    "lng": -90.0681,
    "phone": "(504) 523-5433",
    "website": "https://www.arnaudsrestaurant.com",
    "cuisines": [
      "Creole",
      "French"
    ],
    "liveRating": 4.4
  },
  {
    "name": "Brennan's Restaurant",
    "address": {
      "line1": "417 Royal Street",
      "line2": "",
      "city": "New Orleans",
      "state": "LA",
      "zip": "70130"
    },
    "lat": 29.9572,
    "lng": -90.0647,
    "phone": "(504) 525-9711",
    "website": "https://www.brennansneworleans.com",
    "cuisines": [
      "Creole",
      "Fine Dining"
    ],
    "liveRating": 4.5
  },
  {
    "name": "Cafe du Monde",
    "address": {
      "line1": "800 Decatur Street",
      "line2": "",
      "city": "New Orleans",
      "state": "LA",
      "zip": "70116"
    },
    "lat": 29.9583,
    "lng": -90.0625,
    "phone": "(504) 525-4544",
    "website": "https://www.cafedumonde.com",
    "cuisines": [
      "Café",
      "Desserts"
    ],
    "liveRating": 4.2
  },
  {
    "name": "Acme Oyster House",
    "address": {
      "line1": "724 Iberville Street",
      "line2": "",
      "city": "New Orleans",
      "state": "LA",
      "zip": "70130"
    },
    "lat": 29.9567,
    "lng": -90.0672,
    "phone": "(504) 522-5973",
    "website": "https://www.acmeoyster.com",
    "cuisines": [
      "Seafood",
      "Creole"
    ],
    "liveRating": 4.3
  },
  {
    "name": "Mother's Restaurant",
    "address": {
      "line1": "401 Poydras Street",
      "line2": "",
      "city": "New Orleans",
      "state": "LA",
      "zip": "70130"
    },
    "lat": 29.9506,
    "lng": -90.0681,
    "phone": "(504) 523-9656",
    "website": "https://www.mothersrestaurant.net",
    "cuisines": [
      "Po' Boys",
      "Southern"
    ],
    "liveRating": 4.4
  },
  {
    "name": "Dooky Chase's Restaurant",
    "address": {
      "line1": "2301 Orleans Avenue",
      "line2": "",
      "city": "New Orleans",
      "state": "LA",
      "zip": "70119"
    },
    "lat": 29.9681,
    "lng": -90.0814,
    "phone": "(504) 821-0600",
    "website": "https://www.dookychaserestaurant.com",
    "cuisines": [
      "Creole",
      "Soul Food"
    ],
    "liveRating": 4.6
  },
  {
    "name": "Willie Mae's Scotch House",
    "address": {
      "line1": "2401 St Ann Street",
      "line2": "",
      "city": "New Orleans",
      "state": "LA",
      "zip": "70119"
    },
    "lat": 29.9686,
    "lng": -90.0803,
    "phone": "(504) 822-9503",
    "cuisines": [
      "Southern",
      "Soul Food"
    ],
    "liveRating": 4.5
  },
  {
    "name": "Cochon",
    "address": {
      "line1": "930 Tchoupitoulas Street",
      "line2": "",
      "city": "New Orleans",
      "state": "LA",
      "zip": "70130"
    },
    "lat": 29.9458,
    "lng": -90.0708,
    "phone": "(504) 588-2123",
    "website": "https://www.cochonrestaurant.com",
    "cuisines": [
      "Cajun",
      "Southern"
    ],
    "liveRating": 4.6
  },
  {
    "name": "Emeril's New Orleans",
    "address": {
      "line1": "800 Tchoupitoulas Street",
      "line2": "",
      "city": "New Orleans",
      "state": "LA",
      "zip": "70130"
    },
    "lat": 29.9478,
    "lng": -90.0703,
    "phone": "(504) 528-9393",
    "website": "https://www.emerilsrestaurants.com/emerils-new-orleans",
    "cuisines": [
      "Creole",
      "Fine Dining"
    ],
    "liveRating": 4.5
  },
  {
    "name": "Drago's Seafood Restaurant",
    "address": {
      "line1": "2 Poydras Street",
      "line2": "",
      "city": "New Orleans",
      "state": "LA",
      "zip": "70130"
    },
    "lat": 29.9503,
    "lng": -90.0686,
    "phone": "(504) 584-3911",
    "website": "https://www.dragosrestaurant.com",
    "cuisines": [
      "Seafood",
      "Creole"
    ],
    "liveRating": 4.4
  },
  {
    "name": "The Court of Two Sisters",
    "address": {
      "line1": "613 Royal Street",
      "line2": "",
      "city": "New Orleans",
      "state": "LA",
      "zip": "70130"
    },
    "lat": 29.9575,
    "lng": -90.0653,
    "phone": "(504) 522-7261",
    "website": "https://www.courtoftwosisters.com",
    "cuisines": [
      "Creole",
      "Jazz Brunch"
    ],
    "liveRating": 4.2
  },
  {
    "name": "K-Paul's Louisiana Kitchen",
    "address": {
      "line1": "416 Chartres Street",
      "line2": "",
      "city": "New Orleans",
      "state": "LA",
      "zip": "70130"
    },
    "lat": 29.9564,
    "lng": -90.0658,
    "phone": "(504) 524-7394",
    "website": "https://www.kpauls.com",
    "cuisines": [
      "Cajun",
      "Creole"
    ],
    "liveRating": 4.3
  },
  {
    "name": "Muriel's Jackson Square",
    "address": {
      "line1": "801 Chartres St",
      "line2": "",
      "city": "New Orleans",
      "state": "LA",
      "zip": "70116"
    },
    "lat": 29.9578,
    "lng": -90.0639,
    "cuisines": [
      "Creole",
      "Fine Dining"
    ],
    "phone": null,
    "website": null,
    "liveRating": null
  },
  {
    "name": "The Gumbo Shop",
    "address": {
      "line1": "630 St Peter St",
      "line2": "",
      "city": "New Orleans",
      "state": "LA",
      "zip": "70116"
    },
    "lat": 29.9586,
    "lng": -90.0642,
    "cuisines": [
      "Creole",
      "Gumbo"
    ],
    "phone": null,
    "website": null,
    "liveRating": null
  },
  {
    "name": "Napoleon House",
    "address": {
      "line1": "500 Chartres St",
      "line2": "",
      "city": "New Orleans",
      "state": "LA",
      "zip": "70130"
    },
    "lat": 29.9567,
    "lng": -90.0656,
    "cuisines": [
      "Creole",
      "Bar"
    ],
    "phone": null,
    "website": null,
    "liveRating": null
  },
  {
    "name": "Johnny's Po-Boys",
    "address": {
      "line1": "511 St Louis St",
      "line2": "",
      "city": "New Orleans",
      "state": "LA",
      "zip": "70130"
    },
    "lat": 29.9572,
    "lng": -90.0658,
    "cuisines": [
      "Po' Boys",
      "Sandwiches"
    ],
    "phone": null,
    "website": null,
    "liveRating": null
  },
  {
    "name": "Central Grocery",
    "address": {
      "line1": "923 Decatur St",
      "line2": "",
      "city": "New Orleans",
      "state": "LA",
      "zip": "70116"
    },
    "lat": 29.9586,
    "lng": -90.0628,
    "cuisines": [
      "Deli",
      "Muffuletta"
    ],
    "phone": null,
    "website": null,
    "liveRating": null
  },
  {
    "name": "Felix's Restaurant & Oyster Bar",
    "address": {
      "line1": "739 Iberville St",
      "line2": "",
      "city": "New Orleans",
      "state": "LA",
      "zip": "70130"
    },
    "lat": 29.9567,
    "lng": -90.0672,
    "cuisines": [
      "Seafood",
      "Oysters"
    ],
    "phone": null,
    "website": null,
    "liveRating": null
  },
  {
    "name": "Mr. B's Bistro",
    "address": {
      "line1": "201 Royal St",
      "line2": "",
      "city": "New Orleans",
      "state": "LA",
      "zip": "70130"
    },
    "lat": 29.9575,
    "lng": -90.0667,
    "cuisines": [
      "Creole",
      "Bistro"
    ],
    "phone": null,
    "website": null,
    "liveRating": null
  },
  {
    "name": "Tujague's Restaurant",
    "address": {
      "line1": "823 Decatur St",
      "line2": "",
      "city": "New Orleans",
      "state": "LA",
      "zip": "70116"
    },
    "lat": 29.9583,
    "lng": -90.0631,
    "cuisines": [
      "Creole",
      "French"
    ],
    "phone": null,
    "website": null,
    "liveRating": null
  },
  {
    "name": "Irene's Cuisine",
    "address": {
      "line1": "539 St Philip St",
      "line2": "",
      "city": "New Orleans",
      "state": "LA",
      "zip": "70116"
    },
    "lat": 29.9592,
    "lng": -90.0647,
    "cuisines": [
      "Italian",
      "Creole"
    ],
    "phone": null,
    "website": null,
    "liveRating": null
  },
  {
    "name": "Coop's Place",
    "address": {
      "line1": "1109 Decatur St",
      "line2": "",
      "city": "New Orleans",
      "state": "LA",
      "zip": "70116"
    },
    "lat": 29.9592,
    "lng": -90.0622,
    "cuisines": [
      "Creole",
      "Bar"
    ],
    "phone": null,
    "website": null,
    "liveRating": null
  },
  {
    "name": "Pascal's Manale",
    "address": {
      "line1": "1838 Napoleon Ave",
      "line2": "",
      "city": "New Orleans",
      "state": "LA",
      "zip": "70115"
    },
    "lat": 29.9256,
    "lng": -90.0814,
    "cuisines": [
      "Italian",
      "Seafood"
    ],
    "phone": null,
    "website": null,
    "liveRating": null
  },
  {
    "name": "Clancy's",
    "address": {
      "line1": "6100 Annunciation St",
      "line2": "",
      "city": "New Orleans",
      "state": "LA",
      "zip": "70118"
    },
    "lat": 29.9306,
    "lng": -90.0814,
    "cuisines": [
      "Creole",
      "Fine Dining"
    ],
    "phone": null,
    "website": null,
    "liveRating": null
  },
  {
    "name": "La Petite Grocery",
    "address": {
      "line1": "4238 Magazine St",
      "line2": "",
      "city": "New Orleans",
      "state": "LA",
      "zip": "70115"
    },
    "lat": 29.9206,
    "lng": -90.0814,
    "cuisines": [
      "French",
      "Bistro"
    ],
    "phone": null,
    "website": null,
    "liveRating": null
  },
  {
    "name": "Coquette",
    "address": {
      "line1": "2800 Magazine St",
      "line2": "",
      "city": "New Orleans",
      "state": "LA",
      "zip": "70115"
    },
    "lat": 29.9256,
    "lng": -90.0814,
    "cuisines": [
      "Contemporary",
      "Fine Dining"
    ],
    "phone": null,
    "website": null,
    "liveRating": null
  },
  {
    "name": "Surrey's Cafe & Juice Bar",
    "address": {
      "line1": "1418 Magazine St",
      "line2": "",
      "city": "New Orleans",
      "state": "LA",
      "zip": "70130"
    },
    "lat": 29.9306,
    "lng": -90.0814,
    "cuisines": [
      "Breakfast",
      "Brunch"
    ],
    "phone": null,
    "website": null,
    "liveRating": null
  },
  {
    "name": "The Rum House",
    "address": {
      "line1": "3128 Magazine St",
      "line2": "",
      "city": "New Orleans",
      "state": "LA",
      "zip": "70115"
    },
    "lat": 29.9206,
    "lng": -90.0814,
    "cuisines": [
      "Caribbean",
      "Bar"
    ],
    "phone": null,
    "website": null,
    "liveRating": null
  },
  {
    "name": "Joey K's Restaurant",
    "address": {
      "line1": "3001 Magazine St",
      "line2": "",
      "city": "New Orleans",
      "state": "LA",
      "zip": "70115"
    },
    "lat": 29.9206,
    "lng": -90.0814,
    "cuisines": [
      "Creole",
      "Casual"
    ],
    "phone": null,
    "website": null,
    "liveRating": null
  },
  {
    "name": "Herbsaint",
    "address": {
      "line1": "701 St Charles Ave",
      "line2": "",
      "city": "New Orleans",
      "state": "LA",
      "zip": "70130"
    },
    "lat": 29.9506,
    "lng": -90.0681,
    "cuisines": [
      "French",
      "Contemporary"
    ],
    "phone": null,
    "website": null,
    "liveRating": null
  },
  {
    "name": "Peche Seafood Grill",
    "address": {
      "line1": "800 Magazine St",
      "line2": "",
      "city": "New Orleans",
      "state": "LA",
      "zip": "70130"
    },
    "lat": 29.9478,
    "lng": -70.0703,
    "cuisines": [
      "Seafood",
      "Contemporary"
    ],
    "phone": null,
    "website": null,
    "liveRating": null
  },
  {
    "name": "Cochon Butcher",
    "address": {
      "line1": "930 Tchoupitoulas St",
      "line2": "",
      "city": "New Orleans",
      "state": "LA",
      "zip": "70130"
    },
    "lat": 29.9458,
    "lng": -90.0708,
    "cuisines": [
      "Sandwiches",
      "Butcher"
    ],
    "phone": null,
    "website": null,
    "liveRating": null
  },
  {
    "name": "Luke",
    "address": {
      "line1": "333 St Charles Ave",
      "line2": "",
      "city": "New Orleans",
      "state": "LA",
      "zip": "70130"
    },
    "lat": 29.9506,
    "lng": -90.0681,
    "cuisines": [
      "Brasserie",
      "French"
    ],
    "phone": null,
    "website": null,
    "liveRating": null
  },
  {
    "name": "Domenica",
    "address": {
      "line1": "123 Baronne St",
      "line2": "",
      "city": "New Orleans",
      "state": "LA",
      "zip": "70112"
    },
    "lat": 29.9506,
    "lng": -90.0681,
    "cuisines": [
      "Italian",
      "Pizza"
    ],
    "phone": null,
    "website": null,
    "liveRating": null
  },
  {
    "name": "August",
    "address": {
      "line1": "301 Tchoupitoulas St",
      "line2": "",
      "city": "New Orleans",
      "state": "LA",
      "zip": "70130"
    },
    "lat": 29.9506,
    "lng": -90.0681,
    "cuisines": [
      "Contemporary",
      "Fine Dining"
    ],
    "phone": null,
    "website": null,
    "liveRating": null
  },
  {
    "name": "Bacchanal Wine",
    "address": {
      "line1": "600 Poland Ave",
      "line2": "",
      "city": "New Orleans",
      "state": "LA",
      "zip": "70117"
    },
    "lat": 29.9631,
    "lng": -90.0542,
    "cuisines": [
      "Wine Bar",
      "Mediterranean"
    ],
    "phone": null,
    "website": null,
    "liveRating": null
  },
  {
    "name": "The Joint",
    "address": {
      "line1": "701 Mazant St",
      "line2": "",
      "city": "New Orleans",
      "state": "LA",
      "zip": "70117"
    },
    "lat": 29.9681,
    "lng": -90.0444,
    "cuisines": [
      "Barbecue",
      "Southern"
    ],
    "phone": null,
    "website": null,
    "liveRating": null
  },
  {
    "name": "Elizabeth's Restaurant",
    "address": {
      "line1": "601 Gallier St",
      "line2": "",
      "city": "New Orleans",
      "state": "LA",
      "zip": "70117"
    },
    "lat": 29.9631,
    "lng": -90.0542,
    "cuisines": [
      "Creole",
      "Breakfast"
    ],
    "phone": null,
    "website": null,
    "liveRating": null
  },
  {
    "name": "Satsuma Cafe",
    "address": {
      "line1": "3218 Dauphine St",
      "line2": "",
      "city": "New Orleans",
      "state": "LA",
      "zip": "70117"
    },
    "lat": 29.9631,
    "lng": -90.0542,
    "cuisines": [
      "Café",
      "Breakfast"
    ],
    "phone": null,
    "website": null,
    "liveRating": null
  },
  {
    "name": "Mimi's in the Marigny",
    "address": {
      "line1": "2601 Royal St",
      "line2": "",
      "city": "New Orleans",
      "state": "LA",
      "zip": "70117"
    },
    "lat": 29.9631,
    "lng": -90.0542,
    "cuisines": [
      "Tapas",
      "Bar"
    ],
    "phone": null,
    "website": null,
    "liveRating": null
  },
  {
    "name": "Liuzza's Restaurant",
    "address": {
      "line1": "3636 Bienville St",
      "line2": "",
      "city": "New Orleans",
      "state": "LA",
      "zip": "70119"
    },
    "lat": 29.9686,
    "lng": -90.1,
    "cuisines": [
      "Creole",
      "Po' Boys"
    ],
    "phone": null,
    "website": null,
    "liveRating": null
  },
  {
    "name": "Parkway Bakery and Tavern",
    "address": {
      "line1": "538 Hagan Ave",
      "line2": "",
      "city": "New Orleans",
      "state": "LA",
      "zip": "70119"
    },
    "lat": 29.9686,
    "lng": -90.1,
    "cuisines": [
      "Po' Boys",
      "Sandwiches"
    ],
    "phone": null,
    "website": null,
    "liveRating": null
  },
  {
    "name": "Mandina's Restaurant",
    "address": {
      "line1": "3800 Canal St",
      "line2": "",
      "city": "New Orleans",
      "state": "LA",
      "zip": "70119"
    },
    "lat": 29.9686,
    "lng": -90.1,
    "cuisines": [
      "Italian",
      "Creole"
    ],
    "phone": null,
    "website": null,
    "liveRating": null
  },
  {
    "name": "Ralph's on the Park",
    "address": {
      "line1": "900 City Park Ave",
      "line2": "",
      "city": "New Orleans",
      "state": "LA",
      "zip": "70119"
    },
    "lat": 29.9686,
    "lng": -90.1,
    "cuisines": [
      "Contemporary",
      "Fine Dining"
    ],
    "phone": null,
    "website": null,
    "liveRating": null
  },
  {
    "name": "Cafe Degas",
    "address": {
      "line1": "3127 Esplanade Ave",
      "line2": "",
      "city": "New Orleans",
      "state": "LA",
      "zip": "70119"
    },
    "lat": 29.9686,
    "lng": -90.1,
    "cuisines": [
      "French",
      "Bistro"
    ],
    "phone": null,
    "website": null,
    "liveRating": null
  },
  {
    "name": "Port of Call",
    "address": {
      "line1": "838 Esplanade Ave",
      "line2": "",
      "city": "New Orleans",
      "state": "LA",
      "zip": "70116"
    },
    "lat": 29.9583,
    "lng": -90.0625,
    "cuisines": [
      "Burgers",
      "Bar"
    ],
    "phone": null,
    "website": null,
    "liveRating": null
  },
  {
    "name": "Camellia Grill",
    "address": {
      "line1": "626 S Carrollton Ave",
      "line2": "",
      "city": "New Orleans",
      "state": "LA",
      "zip": "70118"
    },
    "lat": 29.9306,
    "lng": -90.0814,
    "cuisines": [
      "Diner",
      "Breakfast"
    ],
    "phone": null,
    "website": null,
    "liveRating": null
  },
  {
    "name": "The Camellia Grill",
    "address": {
      "line1": "540 Chartres St",
      "line2": "",
      "city": "New Orleans",
      "state": "LA",
      "zip": "70130"
    },
    "lat": 29.9567,
    "lng": -90.0656,
    "cuisines": [
      "Diner",
      "Breakfast"
    ],
    "phone": null,
    "website": null,
    "liveRating": null
  },
  {
    "name": "Ruby Slipper Cafe",
    "address": {
      "line1": "200 Magazine St",
      "line2": "",
      "city": "New Orleans",
      "state": "LA",
      "zip": "70130"
    },
    "lat": 29.9506,
    "lng": -90.0681,
    "cuisines": [
      "Breakfast",
      "Brunch"
    ],
    "phone": null,
    "website": null,
    "liveRating": null
  },
  {
    "name": "Toast",
    "address": {
      "line1": "1039 Decatur St",
      "line2": "",
      "city": "New Orleans",
      "state": "LA",
      "zip": "70116"
    },
    "lat": 29.9592,
    "lng": -90.0622,
    "cuisines": [
      "Breakfast",
      "Brunch"
    ],
    "phone": null,
    "website": null,
    "liveRating": null
  },
  {
    "name": "Stanley",
    "address": {
      "line1": "547 St Ann St",
      "line2": "",
      "city": "New Orleans",
      "state": "LA",
      "zip": "70116"
    },
    "lat": 29.9586,
    "lng": -90.0642,
    "cuisines": [
      "Breakfast",
      "Brunch"
    ],
    "phone": null,
    "website": null,
    "liveRating": null
  },
  {
    "name": "Sylvain",
    "address": {
      "line1": "625 Chartres St",
      "line2": "",
      "city": "New Orleans",
      "state": "LA",
      "zip": "70130"
    },
    "lat": 29.9575,
    "lng": -90.0653,
    "cuisines": [
      "Contemporary",
      "Bar"
    ],
    "phone": null,
    "website": null,
    "liveRating": null
  },
  {
    "name": "SoBou",
    "address": {
      "line1": "310 Chartres St",
      "line2": "",
      "city": "New Orleans",
      "state": "LA",
      "zip": "70130"
    },
    "lat": 29.9567,
    "lng": -90.0658,
    "cuisines": [
      "Contemporary",
      "Bar"
    ],
    "phone": null,
    "website": null,
    "liveRating": null
  },
  {
    "name": "Bourbon House",
    "address": {
      "line1": "144 Bourbon St",
      "line2": "",
      "city": "New Orleans",
      "state": "LA",
      "zip": "70130"
    },
    "lat": 29.9578,
    "lng": -90.0667,
    "cuisines": [
      "Seafood",
      "Creole"
    ],
    "phone": null,
    "website": null,
    "liveRating": null
  },
  {
    "name": "Red Fish Grill",
    "address": {
      "line1": "115 Bourbon St",
      "line2": "",
      "city": "New Orleans",
      "state": "LA",
      "zip": "70130"
    },
    "lat": 29.9578,
    "lng": -90.0667,
    "cuisines": [
      "Seafood",
      "Creole"
    ],
    "phone": null,
    "website": null,
    "liveRating": null
  },
  {
    "name": "Dickie Brennan's Steakhouse",
    "address": {
      "line1": "716 Iberville St",
      "line2": "",
      "city": "New Orleans",
      "state": "LA",
      "zip": "70130"
    },
    "lat": 29.9567,
    "lng": -90.0672,
    "cuisines": [
      "Steakhouse",
      "Fine Dining"
    ],
    "phone": null,
    "website": null,
    "liveRating": null
  },
  {
    "name": "Palace Cafe",
    "address": {
      "line1": "605 Canal St",
      "line2": "",
      "city": "New Orleans",
      "state": "LA",
      "zip": "70130"
    },
    "lat": 29.9561,
    "lng": -90.0681,
    "cuisines": [
      "Creole",
      "Contemporary"
    ],
    "phone": null,
    "website": null,
    "liveRating": null
  },
  {
    "name": "Dickie Brennan's Tableau",
    "address": {
      "line1": "616 St Peter St",
      "line2": "",
      "city": "New Orleans",
      "state": "LA",
      "zip": "70116"
    },
    "lat": 29.9586,
    "lng": -90.0642,
    "cuisines": [
      "Creole",
      "Fine Dining"
    ],
    "phone": null,
    "website": null,
    "liveRating": null
  },
  {
    "name": "GW Fins",
    "address": {
      "line1": "808 Bienville St",
      "line2": "",
      "city": "New Orleans",
      "state": "LA",
      "zip": "70112"
    },
    "lat": 29.9561,
    "lng": -90.0681,
    "cuisines": [
      "Seafood",
      "Fine Dining"
    ],
    "phone": null,
    "website": null,
    "liveRating": null
  },
  {
    "name": "Iris",
    "address": {
      "line1": "321 N Peters St",
      "line2": "",
      "city": "New Orleans",
      "state": "LA",
      "zip": "70130"
    },
    "lat": 29.9567,
    "lng": -90.0658,
    "cuisines": [
      "Contemporary",
      "Fine Dining"
    ],
    "phone": null,
    "website": null,
    "liveRating": null
  },
  {
    "name": "Restaurant R'evolution",
    "address": {
      "line1": "777 Bienville St",
      "line2": "",
      "city": "New Orleans",
      "state": "LA",
      "zip": "70130"
    },
    "lat": 29.9561,
    "lng": -90.0681,
    "cuisines": [
      "Contemporary",
      "Fine Dining"
    ],
    "phone": null,
    "website": null,
    "liveRating": null
  },
  {
    "name": "Bayona",
    "address": {
      "line1": "430 Dauphine St",
      "line2": "",
      "city": "New Orleans",
      "state": "LA",
      "zip": "70112"
    },
    "lat": 29.9564,
    "lng": -90.0658,
    "cuisines": [
      "Mediterranean",
      "Fine Dining"
    ],
    "phone": null,
    "website": null,
    "liveRating": null
  },
  {
    "name": "NOLA Restaurant",
    "address": {
      "line1": "534 St Louis St",
      "line2": "",
      "city": "New Orleans",
      "state": "LA",
      "zip": "70130"
    },
    "lat": 29.9572,
    "lng": -90.0658,
    "cuisines": [
      "Contemporary",
      "Fine Dining"
    ],
    "phone": null,
    "website": null,
    "liveRating": null
  },
  {
    "name": "The Pelican Club",
    "address": {
      "line1": "615 Bienville St",
      "line2": "",
      "city": "New Orleans",
      "state": "LA",
      "zip": "70130"
    },
    "lat": 29.9561,
    "lng": -90.0681,
    "cuisines": [
      "Contemporary",
      "Fine Dining"
    ],
    "phone": null,
    "website": null,
    "liveRating": null
  }
]